{"results":[{"fsq_id":"5124977de4b0a497552d6064","categories":[{"id":13020,"name":"Sake Bar","icon":{"prefix":"https://ss3.4sqi.net/img/categories_v2/nightlife/sake_","suffix":".png"}}],"chains":[],"distance":204,"geocodes":{"main":{"latitude":35.022652,"longitude":135.755173},"roof":{"latitude":35.022652,"longitude":135.755173}},"link":"/v3/places/5124977de4b0a497552d6064","location":{"address":"上京区薮之内町77-1","country":"JP","cross_street":"下長者町通西洞院東入ル","formatted_address":"上京区薮之内町77-1 (下長者町通西洞院東入ル), 京都市, Kyōto, 602-8041","locality":"Kyoto","postcode":"602-8041","region":"Kyōto"},"name":"酒場井倉木材","related_places":{},"timezone":"Asia/Tokyo"},{"fsq_id":"4cfc9ad520fe370448bc5af8","categories":[{"id":13034,"name":"Café","icon":{"prefix":"https://ss3.4sqi.net/img/categories_v2/food/cafe_","suffix":".png"}}],"chains":[],"distance":335,"geocodes":{"main":{"latitude":35.023645,"longitude":135.751581},"roof":{"latitude":35.023645,"longitude":135.751581}},"link":"/v3/places/4cfc9ad520fe370448bc5af8","location":{"address":"上京区皀莢町309","country":"JP","cross_street":"西堀川通中立売下る","formatted_address":"上京区皀莢町309 (西堀川通中立売下る), 京都市, Kyōto, 602-8242","locality":"Kyoto","postcode":"602-8242","region":"Kyōto"},"name":"Morpho Cafe (モルフォカフェ)","related_places":{},"timezone":"Asia/Tokyo"},{"fsq_id":"4e64a4f9fa76cd64cf29e9f9","categories":[{"id":13034,"name":"Café","icon":{"prefix":"https://ss3.4sqi.net/img/categories_v2/food/cafe_","suffix":".png"}},{"id":13285,"name":"Yoshoku Restaurant","icon":{"prefix":"https://ss3.4sqi.net/img/categories_v2/food/default_","suffix":".png"}}],"chains":[],"distance":993,"geocodes":{"main":{"latitude":35.012305,"longitude":135.755648},"roof":{"latitude":35.012305,"longitude":135.755648}},"link":"/v3/places/4e64a4f9fa76cd64cf29e9f9","location":{"address":"中京区上松屋町706-5","country":"JP","cross_street":"押小路通西洞院東入ル北側","formatted_address":"中京区上松屋町706-5 (押小路通西洞院東入ル北側), 京都市, Kyōto, 604-0035","locality":"Kyoto","postcode":"604-0035","region":"Kyōto"},"name":"La Madrague (喫茶マドラグ)","related_places":{},"timezone":"Asia/Tokyo"},{"fsq_id":"4c4ba671bad7a59325ad1dac","categories":[{"id":13034,"name":"Café","icon":{"prefix":"https://ss3.4sqi.net/img/categories_v2/food/cafe_","suffix":".png"}},{"id":13035,"name":"Coffee Shop","icon":{"prefix":"https://ss3.4sqi.net/img/categories_v2/food/coffeeshop_","suffix":".png"}},{"id":13065,"name":"Restaurant","icon":{"prefix":"https://ss3.4sqi.net/img/categories_v2/food/default_","suffix":".png"}}],"chains":[],"distance":742,"geocodes":{"main":{"latitude":35.026417,"longitude":135.758468},"roof":{"latitude":35.026417,"longitude":135.758468}},"link":"/v3/places/4c4ba671bad7a59325ad1dac","location":{"address":"上京区一条烏丸西入広橋殿400","country":"JP","cross_street":"一条通烏丸西入","formatted_address":"上京区一条烏丸西入広橋殿400 (一条通烏丸西入), 京都市, Kyōto, 602-0911","locality":"Kyoto","postcode":"602-0911","region":"Kyōto"},"name":"Toraya Karyo (虎屋菓寮 京都一条店)","related_places":{"children":[]},"timezone":"Asia/Tokyo"},{"fsq_id":"4b5bb135f964a5205a1029e3","categories":[{"id":16020,"name":"Historic and Protected Site","icon":{"prefix":"https://ss3.4sqi.net/img/categories_v2/arts_entertainment/historicsite_","suffix":".png"}}],"chains":[],"distance":936,"geocodes":{"main":{"latitude":35.014059,"longitude":135.747629},"roof":{"latitude":35.014059,"longitude":135.747629}},"link":"/v3/places/4b5bb135f964a5205a1029e3","location":{"address":"中京区二条城町541","country":"JP","cross_street":"二条通堀川西入","formatted_address":"中京区二条城町541 (二条通堀川西入), 京都市, Kyōto, 604-8301","locality":"Kyoto","postcode":"604-8301","region":"Kyōto"},"name":"Nijo-jo Castle (二条城)","related_places":{"children":[{"fsq_id":"5a3f0e82002f4c20b3548bf2","name":"二条城喫煙処"},{"fsq_id":"58142bc338fa62c3893eefc5","name":"加茂七石"},{"fsq_id":"55727396498e84218fcf9ee0","name":"二条城障壁画展示収蔵館"},{"fsq_id":"52edf947498e0c44228a4b8b","name":"北大手門"},{"fsq_id":"55334507498e6d7e6c8225bb","name":"南門"},{"fsq_id":"52edfbef498e1c93851b4fbd","name":"二条城西門"},{"fsq_id":"4eb23bfbb803483509fa1ea2","name":"二条城本丸御殿"},{"fsq_id":"556a933b498e0b3c1a2caba6","name":"茶房前田"},{"fsq_id":"50593be1e4b099330e0da047","name":"本丸櫓門"},{"fsq_id":"5a1be1180313204994d7584a","name":"バスの駅世界遺産・二条城"},{"fsq_id":"5574c881498e907e6f206552","name":"二条城土蔵"},{"fsq_id":"5059403ee4b022fe1cd9c61b","name":"北中仕切門"},{"fsq_id":"5533464d498e14c3ccfda60e","name":"東南隅櫓"},{"fsq_id":"55726be3498eef85ac7417e4","name":"本丸庭園"},{"fsq_id":"4f97709de4b01f55fa36ff84","name":"二条城駐車場"},{"fsq_id":"5a3f3fef1f8ed6367aa43309","name":"二条城西橋"},{"fsq_id":"5574c734498ec58f83b812b0","name":"二条城西南土蔵"},{"fsq_id":"4fa335a8e4b09571dd892f13","name":"本丸御殿"},{"fsq_id":"532c0c2411d29ace03afe2e8","name":"桃山門"},{"fsq_id":"55334f88498e588738dad36a","name":"二条城休憩所"},{"fsq_id":"56f8b9f6498ea15973caeba8","name":"茶乃逢二条城店"},{"fsq_id":"4c660178c2ead13a53dfb280","name":"東大手門"},{"fsq_id":"4f0068880cd658d3b312084b","name":"冷然院跡"},{"fsq_id":"4eb8d25a30f8d0f18dc65ece","name":"天守閣跡"},{"fsq_id":"505940f6e4b05ea4162e2ada","name":"清流園"},{"fsq_id":"533d351d498e4777cc6e6c1f","name":"二条城切符売場"},{"fsq_id":"4f02abbb0cd658d3b350bf2b","name":"二の丸庭園"},{"fsq_id":"596980e65455b223c7b68e10","name":"Souvenir Shop"},{"fsq_id":"55335481498ea9b8600379bc","name":"旧二条城の石垣"},{"fsq_id":"4eeee34e77169cacb3b1eb24","name":"舊二條離宮二條城石碑"},{"fsq_id":"55726509498e9d09ae34f45b","name":"南中仕切門"},{"fsq_id":"50a9ae8be4b0702a8345d5f6","name":"お抹茶一服 お菓子付"},{"fsq_id":"5c257146419a9e002c34e21b","name":"二条城番所"}]},"timezone":"Asia/Tokyo"},{"fsq_id":"4b59b9c3f964a520ca9428e3","categories":[{"id":16032,"name":"Park","icon":{"prefix":"https://ss3.4sqi.net/img/categories_v2/parks_outdoors/park_","suffix":".png"}}],"chains":[],"distance":895,"geocodes":{"main":{"latitude":35.023215,"longitude":135.763333}},"link":"/v3/places/4b59b9c3f964a520ca9428e3","location":{"address":"上京区京都御苑3","country":"JP","formatted_address":"上京区京都御苑3, 京都市, Kyōto, 602-0881","locality":"Kyoto","postcode":"602-0881","region":"Kyōto"},"name":"Kyoto Gyoen (京都御苑)","related_places":{"children":[{"fsq_id":"533680b4498e9eda810b1df4","name":"貽範碑"},{"fsq_id":"4e69875e62e1cd1d544e10b7","name":"中立売休憩所"},{"fsq_id":"557ab51d498ec78abc907e3a","name":"博覧会場跡"},{"fsq_id":"4f81fd34e4b0b2237da2223b","name":"桃林"},{"fsq_id":"5003958ae4b01f40cee63125","name":"京都大宮御所"},{"fsq_id":"4d96d8c261a3a1cd3843a642","name":"宗像神社"},{"fsq_id":"4eb1dead4fc61d198313de5d","name":"仙洞御所"},{"fsq_id":"4c11cfbcd917c9289872b662","name":"拾翠亭"},{"fsq_id":"4bc5bcf0ccbcef3b30dde6d2","name":"蛤御門"},{"fsq_id":"5371ebbd498e39b47688171d","name":"推定旧二条城の復元石垣"},{"fsq_id":"530d60f6498e646b16c28080","name":"京都御苑嘉陽宮邸跡"},{"fsq_id":"5120744de4b0c66bd54023a1","name":"白雲神社西のエノキ"},{"fsq_id":"557ab58c498ebb8acb27b26b","name":"桜町"},{"fsq_id":"4faec2f3e4b0fa27b8855a5f","name":"桂宮邸跡"},{"fsq_id":"506cf18690e77869cffabe80","name":"石薬師御門"},{"fsq_id":"4efc63576d866121e6b75232","name":"染殿井"},{"fsq_id":"5e379f92dbf5ba0008b36084","name":"レストラン 檜垣茶寮"},{"fsq_id":"4bb5410b6edc76b07f852f1c","name":"今出川グラウンド"},{"fsq_id":"4ec8a41149010f98cdf61405","name":"寺町御門"},{"fsq_id":"506cf2d090e77869cffad1a4","name":"中立売御門"},{"fsq_id":"558a2aa7498e8c5677bef7ba","name":"京都御苑西駐車場"},{"fsq_id":"4fcb2094e4b068d41fdb9cf1","name":"清和院御門"},{"fsq_id":"4d55f75ea05c370462dfbf87","name":"母と子の森"},{"fsq_id":"4ffe92dae4b0ac26d378294e","name":"学習院跡"},{"fsq_id":"4df181cb22718759f81790b1","name":"白雲神社"},{"fsq_id":"4bca69cf3740b7138bda6065","name":"京都御苑児童公園"},{"fsq_id":"4b453c69f964a520be0826e3","name":"京都御所"},{"fsq_id":"5385b85e498eec2ff9eeebf1","name":"京都御苑間ノ町口"},{"fsq_id":"5255083e11d239454a94fc70","name":"森の文庫"},{"fsq_id":"4c22857ffbe5c9b6c0079a21","name":"富小路グラウンド"},{"fsq_id":"50bd6697e4b0dabe7fc9bc81","name":"京都御苑今出川口"},{"fsq_id":"4ea37cd6d3e32e68687053cc","name":"堺町御門"},{"fsq_id":"523185c611d2879418549d34","name":"西園寺邸趾"},{"fsq_id":"5073b673e4b0175b558f3a78","name":"富小路休憩所"},{"fsq_id":"4c4a8183959220a10401380e","name":"京都迎賓館"},{"fsq_id":"4bfe1e67e529c928e0f1bb8c","name":"御所テニスコート"},{"fsq_id":"4fbdb445e4b02646e910b7ec","name":"宮内庁京都事務所 "},{"fsq_id":"5385bbf2498e7995144f87eb","name":"京都御苑富小路口"},{"fsq_id":"51f23d07498eda24eae56f19","name":"凝華洞跡"},{"fsq_id":"4efc5abe6d866121e6b6a289","name":"縣井"},{"fsq_id":"55555884498e7ce32fb37431","name":"京都御苑中立売南休憩所"},{"fsq_id":"560f2c1d498e9a97edc64ed3","name":"九条池"},{"fsq_id":"501b2ff0e4b0a0e674b9c2bb","name":"トンボ池"},{"fsq_id":"4f1df57be4b0633db6bd65e8","name":"大原記念病院"},{"fsq_id":"51396304e4b07cfa4e1cafa4","name":"鷹司邸跡"},{"fsq_id":"4d9ab2f017a4236a5678d059","name":"京都御苑桜通り"},{"fsq_id":"521acea711d202c8ff57b3ca","name":"土御門第跡"},{"fsq_id":"4f757998e4b0dbc5b5f40561","name":"近衛邸跡"},{"fsq_id":"4de9b2fb18386283a3d20ce5","name":"今出川御門"},{"fsq_id":"5157d8fbe4b0fa0f8e30f2da","name":"出水の小川"},{"fsq_id":"4eb21462be7b67859f91e225","name":"清水谷家の椋"},{"fsq_id":"4e9a216de5fa3f633d107e26","name":"厳島神社"},{"fsq_id":"52411fb9498ec55f3a17d7a7","name":"染殿第跡"},{"fsq_id":"5a24dcaf0123585ac9e164eb","name":"京都御苑出水口"},{"fsq_id":"51bd5095498e0570167f5262","name":"マツに生えたサクラ"},{"fsq_id":"515d3277e4b0261bbbf171da","name":"皇宮警察京都護衛署"},{"fsq_id":"4e7edff8775bf075d84b439a","name":"京都御苑下立売御門"},{"fsq_id":"535209f3498ed9d458e335c5","name":"コオロギの里"},{"fsq_id":"5758e9b9498ea02f6432370f","name":"環境省京都御苑管理事務所"}]},"timezone":"Asia/Tokyo"},{"fsq_id":"4b6e6242f964a52027bb2ce3","categories":[{"id":17003,"name":"Arts and Crafts Store","icon":{"prefix":"https://ss3.4sqi.net/img/categories_v2/shops/artstore_","suffix":".png"}}],"chains":[],"distance":925,"geocodes":{"main":{"latitude":35.014178,"longitude":135.759922},"roof":{"latitude":35.014178,"longitude":135.759922}},"link":"/v3/places/4b6e6242f964a52027bb2ce3","location":{"address":"中京区烏丸通二条上ル東側","country":"JP","cross_street":"烏丸通二条上ル東側","formatted_address":"中京区烏丸通二条上ル東側 (烏丸通二条上ル東側), 京都市, Kyōto, 604-0857","locality":"Kyoto","postcode":"604-0857","region":"Kyōto"},"name":"Shoeido (松栄堂 京都本店)","related_places":{"children":[{"fsq_id":"5b46dbab1c675b002c1f4665","name":"薫習館"}]},"timezone":"Asia/Tokyo"},{"fsq_id":"4b6218abf964a5202d352ae3","categories":[{"id":13002,"name":"Bakery","icon":{"prefix":"https://ss3.4sqi.net/img/categories_v2/food/bakery_","suffix":".png"}}],"chains":[],"distance":1095,"geocodes":{"main":{"latitude":35.029668,"longitude":135.748052},"roof":{"latitude":35.029668,"longitude":135.748052}},"link":"/v3/places/4b6218abf964a5202d352ae3","location":{"address":"上京区今出川通大宮西入元北小路町159","country":"JP","cross_street":"大晋メゾネ西陣今出川 1F/今出川通大宮西入ル","formatted_address":"上京区今出川通大宮西入元北小路町159 (大晋メゾネ西陣今出川 1F/今出川通大宮西入ル), 京都市, Kyōto, 602-8448","locality":"Kyoto","postcode":"602-8448","region":"Kyōto"},"name":"Le Petit Mec (ル・プチメック 今出川)","related_places":{},"timezone":"Asia/Tokyo"},{"fsq_id":"4b5e6e6df964a5206d8e29e3","categories":[{"id":13040,"name":"Dessert Shop","icon":{"prefix":"https://ss3.4sqi.net/img/categories_v2/food/dessert_","suffix":".png"}},{"id":13283,"name":"Wagashi Place","icon":{"prefix":"https://ss3.4sqi.net/img/categories_v2/food/dessert_","suffix":".png"}}],"chains":[],"distance":771,"geocodes":{"main":{"latitude":35.026389,"longitude":135.759187},"roof":{"latitude":35.026389,"longitude":135.759187}},"link":"/v3/places/4b5e6e6df964a5206d8e29e3","location":{"address":"上京区烏丸町通一条上る広橋殿町415","country":"JP","formatted_address":"上京区烏丸町通一条上る広橋殿町415, 京都市, Kyōto, 602-0911","locality":"Kyoto","postcode":"602-0911","region":"Kyōto"},"name":"とらや一条店","related_places":{},"timezone":"Asia/Tokyo"},{"fsq_id":"4c383afd2c8020a1d27e8a00","categories":[{"id":13034,"name":"Café","icon":{"prefix":"https://ss3.4sqi.net/img/categories_v2/food/cafe_","suffix":".png"}},{"id":13047,"name":"Pastry Shop","icon":{"prefix":"https://ss3.4sqi.net/img/categories_v2/food/dessert_","suffix":".png"}},{"id":13065,"name":"Restaurant","icon":{"prefix":"https://ss3.4sqi.net/img/categories_v2/food/default_","suffix":".png"}}],"chains":[],"distance":946,"geocodes":{"main":{"latitude":35.013174,"longitude":135.757951},"roof":{"latitude":35.013174,"longitude":135.757951}},"link":"/v3/places/4c383afd2c8020a1d27e8a00","location":{"address":"中京区室町通二条下る蛸薬師町271-1","country":"JP","cross_street":"室町通二条下る","formatted_address":"中京区室町通二条下る蛸薬師町271-1 (室町通二条下る), 京都市, Kyōto, 604-0021","locality":"Kyoto","postcode":"604-0021","region":"Kyōto"},"name":"Zen Kashoin (然花抄院)","related_places":{"children":[{"fsq_id":"64607d115dea43464d5e635f","name":"茶寮然カフェ"},{"fsq_id":"4e7c21d114957e40c04678e6","name":"ギャラリー素形"}]},"timezone":"Asia/Tokyo"}],"context":{"geo_bounds":{"circle":{"center":{"latitude":35.02107,"longitude":135.75385},"radius":18823}}}}
